,City,Lat,Lng,Max Temp,Humidity,Cloudiness,Wind Speed,Country,Date
0,Qaqortoq,60.7167,-46.0333,50.0,29,20,11.5,GL,1619132249
1,Half Moon Bay,37.4636,-122.4286,62.01,87,75,6.91,US,1619132459
2,Hobyo,5.3505,48.5268,83.53,71,77,11.59,SO,1619132459
3,Atuona,-9.8,-139.0333,80.82,76,49,19.53,PF,1619132460
4,Kapaa,22.0752,-159.319,81.0,73,20,9.22,US,1619132460
5,Usinsk,65.9939,57.5281,37.54,94,100,20.38,RU,1619132460
6,Campos Sales,-7.0744,-40.3761,69.73,90,61,3.8,BR,1619132461
7,Seymchan,62.8833,152.4333,24.8,92,100,2.51,RU,1619132461
8,Kharagauli,42.0214,43.1977,50.0,93,90,2.3,GE,1619132462
9,Chokurdakh,70.6333,147.9167,0.91,95,95,6.08,RU,1619132462
10,Baie-Comeau,49.2168,-68.1489,33.8,93,90,14.97,CA,1619132463
11,Kudahuvadhoo,2.6708,72.8944,82.58,70,91,11.16,MV,1619132463
12,Andros,37.8333,24.9333,62.01,48,53,8.01,GR,1619132464
13,Bonavista,48.6499,-53.1147,48.2,76,100,8.05,CA,1619132330
14,Barrow,71.2906,-156.7887,21.2,86,1,8.05,US,1619132464
15,Punta Arenas,-53.15,-70.9167,46.4,93,75,4.61,CL,1619132465
16,Mataura,-46.1927,168.8643,54.0,87,98,4.0,NZ,1619132465
17,Busselton,-33.65,115.3333,57.0,84,82,1.99,AU,1619132465
18,Pacific Grove,36.6177,-121.9166,57.2,67,90,12.66,US,1619132290
19,Port Alfred,-33.5906,26.891,67.6,82,58,19.44,ZA,1619132466
20,Norman Wells,65.282,-126.8329,26.6,63,75,11.5,CA,1619132466
21,Khatanga,71.9667,102.5,28.08,96,99,12.53,RU,1619132467
22,Hithadhoo,-0.6,73.0833,82.58,74,42,8.12,MV,1619132184
23,Mahon,39.8885,4.2658,50.0,93,20,3.44,ES,1619132468
24,Constitución,-35.3333,-72.4167,55.04,85,90,11.92,CL,1619132468
25,Margate,51.3813,1.3862,43.0,74,7,1.99,GB,1619132469
26,Mitú,1.1983,-70.1733,75.27,92,96,1.59,CO,1619132469
27,New Norfolk,-42.7826,147.0587,52.0,66,60,3.0,AU,1619132470
28,Bluff,-46.6,168.3333,54.0,87,100,4.0,NZ,1619132470
29,Victor Harbor,-35.5667,138.6167,60.01,80,85,9.37,AU,1619132471
30,Yellowknife,62.456,-114.3525,16.0,53,75,18.41,CA,1619132471
31,Carutapera,-1.195,-46.02,75.83,91,100,3.91,BR,1619132471
32,Dauriya,49.9333,116.8667,37.72,43,89,14.74,RU,1619132472
33,Vaini,-21.2,-175.2,84.2,84,75,6.91,TO,1619132472
34,Nicoya,10.1483,-85.452,89.6,40,0,16.11,CR,1619132472
35,Lorengau,-2.0226,147.2712,82.53,77,100,2.42,PG,1619132473
36,Northam,51.0333,-4.2167,46.0,71,0,5.99,GB,1619132473
37,Gravdal,68.1214,13.5031,35.28,54,92,14.85,NO,1619132474
38,Guerrero Negro,27.9769,-114.0611,64.53,55,2,19.44,MX,1619132474
39,Mareeba,-17.0,145.4333,78.01,88,90,9.22,AU,1619132475
40,Bredasdorp,-34.5322,20.0403,62.08,92,1,1.88,ZA,1619132475
41,Arraial do Cabo,-22.9661,-42.0278,71.6,88,20,14.97,BR,1619132476
42,Kavieng,-2.5744,150.7967,82.27,74,92,7.31,PG,1619132486
43,Hermanus,-34.4187,19.2345,61.0,81,0,3.0,ZA,1619132486
44,Kaitangata,-46.2817,169.8464,55.0,84,100,1.99,NZ,1619132478
45,Rikitea,-23.1203,-134.9692,77.9,75,85,15.3,PF,1619132487
46,Si Satchanalai,17.5169,99.7598,81.95,65,8,2.73,TH,1619132487
47,Dingle,10.9995,122.6711,80.73,77,89,8.81,PH,1619132488
48,Itanagar,27.1,93.6167,68.22,79,5,3.11,IN,1619132488
49,Thompson,55.7435,-97.8558,21.2,68,75,18.41,CA,1619132488
50,Beringovskiy,63.05,179.3167,26.11,72,59,7.92,RU,1619132489
51,Albany,42.6001,-73.9662,41.0,37,82,1.01,US,1619132412
52,Carnarvon,-24.8667,113.6333,66.2,63,40,6.91,AU,1619132490
53,Cape Town,-33.9258,18.4232,57.0,100,90,12.66,ZA,1619132244
54,Trat,12.5,102.5,82.0,99,87,1.99,TH,1619132491
55,Tiksi,71.6872,128.8694,13.23,86,100,4.43,RU,1619132491
56,Lundazi,-12.2929,33.1782,61.14,91,0,6.62,ZM,1619132491
57,Ushuaia,-54.8,-68.3,42.8,87,75,11.5,AR,1619132411
58,Cervo,43.6702,-7.4101,54.0,87,98,1.01,ES,1619132492
59,Rantepao,-2.9701,119.8978,67.93,96,100,1.66,ID,1619132410
60,Ogaminana,7.5946,6.2248,78.01,88,54,6.8,NG,1619132492
61,Saint-Philippe,-21.3585,55.7679,77.0,73,90,11.5,RE,1619132480
62,Mahébourg,-20.4081,57.7,77.0,94,75,6.91,MU,1619132464
63,Richards Bay,-28.783,32.0377,67.59,88,90,7.4,ZA,1619132282
64,North Myrtle Beach,33.816,-78.68,61.0,23,1,10.36,US,1619132279
65,Hobart,-42.8794,147.3294,55.4,47,75,10.36,AU,1619132263
66,Havøysund,70.9963,24.6622,32.0,80,40,5.75,NO,1619132317
67,Butaritari,3.0707,172.7902,82.72,74,58,10.4,KI,1619132481
68,Bathsheba,13.2167,-59.5167,80.6,61,40,19.57,BB,1619132467
69,Ahipara,-35.1667,173.1667,67.57,72,98,9.26,NZ,1619132494
70,Sur,22.5667,59.5289,85.59,30,6,14.5,OM,1619132495
71,La Ronge,55.1001,-105.2842,28.4,43,99,16.11,CA,1619132495
72,Pushkinskiye Gory,57.0209,28.9103,37.69,81,100,8.21,RU,1619132496
73,Saint-Pierre,-21.3393,55.4781,77.0,73,90,11.5,RE,1619132496
74,Tuktoyaktuk,69.4541,-133.0374,12.2,73,20,9.22,CA,1619132496
75,Tasiilaq,65.6145,-37.6368,28.4,59,75,10.36,GL,1619132497
76,Campbellton,48.0075,-66.6727,35.6,93,100,11.5,CA,1619132362
77,Nālūt,30.3333,10.85,76.57,23,14,6.35,LY,1619132498
78,Coquimbo,-29.9533,-71.3436,59.0,82,75,6.91,CL,1619132495
79,Lebu,-37.6167,-73.65,52.32,76,89,2.3,CL,1619132498
80,Te Anau,-45.4167,167.7167,53.29,76,93,6.15,NZ,1619132499
81,Mendi,-6.1761,143.6513,63.19,82,99,0.89,PG,1619132499
82,Kavaratti,10.5669,72.642,83.28,69,73,7.56,IN,1619132499
83,Jamestown,42.097,-79.2353,35.01,93,90,18.41,US,1619132283
84,East London,-33.0153,27.9116,67.62,80,98,11.3,ZA,1619132413
85,Tiarei,-17.5333,-149.3333,84.2,65,20,8.05,PF,1619132345
86,Tessalit,20.1986,1.0114,84.16,7,0,7.74,ML,1619132511
87,Hilo,19.7297,-155.09,82.4,54,90,11.5,US,1619132511
88,Luba,3.4568,8.5547,82.63,80,74,7.43,GQ,1619132512
89,Alençon,48.4333,0.0833,53.6,43,0,9.22,FR,1619132512
90,Dunedin,-45.8742,170.5036,64.99,60,99,3.0,NZ,1619132393
91,Balsas,-7.5325,-46.0356,75.9,80,63,3.44,BR,1619132423
92,Ancud,-41.8697,-73.8203,51.01,100,75,8.05,CL,1619132513
93,Muhos,64.808,25.9931,33.8,93,90,4.61,FI,1619132513
94,Fort Nelson,58.8053,-122.7002,39.2,35,75,10.36,CA,1619132514
95,Virginia Beach,36.8529,-75.978,55.4,30,75,12.66,US,1619132460
96,Lima,-12.0432,-77.0282,66.99,88,90,12.66,PE,1619132275
97,Kloulklubed,7.0419,134.2556,82.4,78,75,5.75,PW,1619132253
98,Saint George,37.1041,-113.5841,75.99,15,1,17.27,US,1619132433
99,Pangnirtung,66.1451,-65.7125,19.4,86,40,8.05,CA,1619132515
100,Maryborough,-25.5333,152.7,70.0,50,94,3.0,AU,1619132516
101,Fortuna,40.5982,-124.1573,60.01,76,1,16.11,US,1619132483
102,Clyde River,70.4692,-68.5914,19.4,68,90,9.22,CA,1619132516
103,Turaif,31.6725,38.6637,69.8,23,0,9.22,SA,1619132517
104,Nikolskoye,59.7035,30.7861,45.0,87,90,5.93,RU,1619132517
105,Amapá,1.0,-52.0,72.45,99,100,2.42,BR,1619132518
106,Amuntai,-2.4177,115.2494,73.6,89,68,0.4,ID,1619132518
107,São João da Barra,-21.6403,-41.0511,71.82,74,1,16.26,BR,1619132518
108,Nanortalik,60.1432,-45.2371,35.76,81,57,3.78,GL,1619132519
109,Trairi,-3.2778,-39.2689,77.61,83,16,4.72,BR,1619132519
110,Kamenka,51.3223,42.7678,43.0,86,73,4.7,RU,1619132309
111,Hasaki,35.7333,140.8333,55.0,62,20,13.8,JP,1619132520
112,Bollnäs,61.3482,16.3946,33.01,67,30,5.99,SE,1619132520
113,Jasper,37.2001,-94.3502,57.99,30,1,5.75,US,1619132223
114,San Cristobal,7.7669,-72.225,86.0,62,20,10.36,VE,1619132521
115,Salinas,36.6777,-121.6555,59.0,67,90,16.11,US,1619132289
116,Severo-Kuril'sk,50.6789,156.125,35.71,93,69,3.11,RU,1619132521
117,Tautira,-17.7333,-149.15,84.2,65,20,8.05,PF,1619132491
118,Naze,28.3667,129.4833,69.8,83,75,18.41,JP,1619132522
119,Campo Maior,-4.8278,-42.1686,74.73,95,85,4.65,BR,1619132522
120,Lundamo,63.1333,10.3,35.01,93,100,11.48,NO,1619132523
121,Samaná,19.2056,-69.3369,80.6,78,75,13.8,DO,1619132523
122,Dikson,73.5069,80.5464,27.46,93,100,23.42,RU,1619132523
123,Ayan,56.45,138.1667,34.0,78,100,7.14,RU,1619132503
124,Hamilton,39.1834,-84.5333,52.0,32,1,12.66,US,1619132326
125,Ongandjera,-17.8833,15.0667,73.74,30,75,6.46,NA,1619132524
126,Independence,39.0911,-94.4155,55.4,44,1,9.22,US,1619132400
127,Ariquemes,-9.9133,-63.0408,73.87,94,64,1.32,BR,1619132418
128,Touros,-5.1989,-35.4608,80.6,78,40,6.91,BR,1619132525
129,Fuxin,42.0156,121.6589,50.81,91,100,2.98,CN,1619132525
130,Kitimat,54.0524,-128.6534,64.0,35,83,1.66,CA,1619132408
131,Puerto Ayora,-0.7393,-90.3518,82.4,74,20,19.57,EC,1619132519
132,Iqaluit,63.7506,-68.5145,21.2,86,90,3.44,CA,1619132536
133,Flin Flon,54.7682,-101.865,28.4,54,90,16.11,CA,1619132537
134,Los Llanos de Aridane,28.6585,-17.9182,68.0,68,0,5.75,ES,1619132537
135,São Lourenço do Sul,-31.3653,-51.9783,68.0,82,4,13.65,BR,1619132538
136,Troitskoye,52.9821,84.6757,26.42,86,11,9.57,RU,1619132538
137,Meulaboh,4.1363,96.1285,76.05,89,90,2.93,ID,1619132539
138,Ribeira Grande,38.5167,-28.7,57.13,76,50,37.49,PT,1619132539
139,Mīnāb,27.1467,57.0801,77.0,73,30,4.61,IR,1619132304
140,Yuli,9.6989,10.2744,87.51,51,46,10.07,NG,1619132540
141,Hella,67.2,14.4333,35.6,69,40,10.36,NO,1619132540
142,Esperance,-33.8667,121.9,53.6,94,99,10.36,AU,1619132540
143,Bengkulu,-3.8004,102.2655,73.44,87,86,3.83,ID,1619132541
144,Uglovoye,44.8215,33.6045,51.01,61,0,8.99,UA,1619132541
145,George Town,5.4112,100.3354,77.0,88,40,13.8,MY,1619132406
146,Castro,-24.7911,-50.0119,58.05,84,98,3.58,BR,1619132465
147,Marsh Harbour,26.5412,-77.0636,75.94,76,27,10.92,BS,1619132542
148,Portland,45.5234,-122.6762,66.99,48,75,3.58,US,1619131949
149,Mar del Plata,-38.0023,-57.5575,68.0,94,40,8.05,AR,1619132441
150,Lagoa,39.05,-27.9833,56.21,78,39,41.63,PT,1619132543
151,Kilindoni,-7.9139,39.6668,79.99,81,71,16.53,TZ,1619132543
152,Kimamba,-6.7833,37.1333,68.16,96,60,3.2,TZ,1619132544
153,Lae,-6.7221,146.9847,77.0,88,75,4.61,PG,1619132544
154,Kununurra,-15.7667,128.7333,77.0,47,100,6.91,AU,1619132314
155,Itarema,-2.9248,-39.9167,78.3,81,20,6.6,BR,1619132331
156,Plettenberg Bay,-34.0527,23.3716,65.66,78,1,6.73,ZA,1619132545
157,Ginda,30.6945,78.4932,46.18,80,100,5.59,IN,1619132545
158,Iquitos,-3.7481,-73.2472,87.8,70,40,4.61,PE,1619132546
159,Ružomberok,49.0748,19.3075,41.0,60,0,4.61,SK,1619132546
160,Lompoc,34.6391,-120.4579,57.0,67,52,10.36,US,1619132547
161,Grants Pass,42.439,-123.3284,75.0,18,1,11.5,US,1619132547
162,Riyadh,24.6877,46.7219,86.0,14,0,8.05,SA,1619132533
163,Salalah,17.0151,54.0924,80.6,74,0,2.3,OM,1619132548
164,Shahr-e Kord,32.3256,50.8644,48.2,57,20,6.91,IR,1619132548
165,Deer Lake,49.1667,-57.4316,50.0,87,90,12.66,CA,1619132549
166,Doka,13.5167,35.7667,85.82,36,53,5.77,SD,1619132549
167,Muncar,-8.4333,114.3333,73.31,84,30,1.36,ID,1619132549
168,Nānākuli,21.3906,-158.1547,84.2,51,75,13.8,US,1619132286
169,Carrollton,32.9537,-96.8903,64.4,34,90,13.8,US,1619132409
170,Palmer,42.1584,-72.3287,42.01,33,75,20.71,US,1619132536
171,Bambous Virieux,-20.3428,57.7575,77.0,94,75,6.91,MU,1619132551
172,Sabha,27.0377,14.4283,81.54,15,100,21.79,LY,1619132561
173,Mpika,-11.8343,31.4529,58.57,97,35,6.31,ZM,1619132562
174,San Rafael,-34.6177,-68.3301,59.32,64,80,7.54,AR,1619132562
175,Gurupá,-1.405,-51.64,71.26,97,100,3.65,BR,1619132443
176,Chui,-33.6971,-53.4616,65.5,80,8,12.03,UY,1619132478
177,Vao,-22.6667,167.4833,74.26,73,32,5.61,NC,1619132530
178,Ajdabiya,30.7554,20.2263,73.92,21,81,12.33,LY,1619132563
179,Khovd,48.0056,91.6419,30.99,35,100,3.58,MN,1619132564
180,Qaanaaq,77.484,-69.3632,13.57,81,79,8.14,GL,1619132554
181,Zhaotong,27.3167,103.7167,53.4,91,20,3.02,CN,1619132564
182,Novobureyskiy,49.798,129.8774,46.54,63,100,11.9,RU,1619132565
183,Kahului,20.8947,-156.47,84.2,48,40,21.85,US,1619132565
184,Saint Paul Harbor,57.79,-152.4072,42.8,87,90,12.66,US,1619132566
185,Diffa,13.3154,12.6113,89.26,10,76,6.29,NE,1619132566
186,Mezen',65.8522,44.24,35.28,94,94,8.03,RU,1619132282
187,Yabrūd,33.9674,36.6574,50.0,57,0,5.75,SY,1619132567
188,Zyryanka,65.75,150.85,17.65,84,100,10.13,RU,1619132567
189,Sooke,48.3746,-123.7276,57.0,64,10,13.8,CA,1619132568
190,Srednekolymsk,67.45,153.6833,14.56,84,96,4.27,RU,1619132509
191,Sisimiut,66.9395,-53.6735,30.11,75,61,6.91,GL,1619132568
192,Nuuk,64.1835,-51.7216,39.2,52,0,4.7,GL,1619132569
193,Bethel,41.3712,-73.414,42.01,47,86,1.99,US,1619132569
194,Fukuechō,32.6881,128.8419,65.73,71,100,4.03,JP,1619132569
195,Malpe,13.35,74.7167,76.95,78,99,1.83,IN,1619132570
196,Narsaq,60.9167,-46.05,50.0,29,88,8.05,GL,1619132570
197,Alexandria,31.2156,29.9553,62.6,77,0,5.75,EG,1619132571
198,Vallenar,-28.5708,-70.7581,63.46,63,73,4.72,CL,1619132571
199,Bambuí,-20.0064,-45.9769,70.86,49,61,1.21,BR,1619132571
200,Progreso,21.2833,-89.6667,90.0,62,75,6.91,MX,1619132572
201,Longyearbyen,78.2186,15.6401,15.8,73,75,4.61,SJ,1619132543
202,Pevek,69.7008,170.3133,22.23,72,29,10.51,RU,1619132513
203,Lüderitz,-26.6481,15.1594,64.85,71,1,7.02,NA,1619132488
204,Brae,60.3964,-1.353,41.0,81,90,6.91,GB,1619132573
205,San Vicente,-26.6167,-54.1333,63.54,61,97,2.21,AR,1619132413
206,Kipushi,-11.7667,27.2333,63.41,90,100,5.46,CD,1619132573
207,Graciano Sánchez,23.9167,-99.2833,87.8,37,40,4.61,MX,1619132574
208,Hofn,64.2539,-15.2082,38.23,79,100,4.68,IS,1619132574
209,Caravelas,-17.7125,-39.2481,73.27,88,95,4.25,BR,1619132575
210,Haimen,23.1935,116.6142,69.8,88,24,4.27,CN,1619132575
211,Isangel,-19.55,169.2667,82.4,78,75,8.39,VU,1619132524
212,Thoen,17.6129,99.2161,82.0,87,8,2.84,TH,1619132575
213,Saskylakh,71.9167,114.0833,5.58,96,100,5.73,RU,1619132576
214,Ribas do Rio Pardo,-20.4431,-53.7592,73.4,40,0,6.62,BR,1619132576
215,Asunción,-25.3007,-57.6359,73.4,68,75,17.27,PY,1619132587
216,Severodvinsk,64.5635,39.8302,37.4,87,75,4.47,RU,1619132587
217,Aljezur,37.3191,-8.8033,58.42,78,100,4.09,PT,1619132588
218,Ouadda,8.0777,22.4007,72.19,69,48,0.83,CF,1619132588
219,Ponta do Sol,32.6667,-17.1,64.99,90,86,4.0,PT,1619132589
220,San Isidro,-12.1167,-77.05,66.99,88,90,12.66,PE,1619132589
221,Murchison,-41.8,172.3333,55.33,85,100,1.61,NZ,1619132590
222,Hoquiam,46.9809,-123.8893,57.99,66,1,13.8,US,1619132590
223,Jardim,-21.4803,-56.1381,75.24,42,0,2.04,BR,1619132535
224,Hailar,49.2,119.7,43.39,64,44,18.28,CN,1619132590
225,San Jerónimo,-11.9472,-75.2829,44.53,94,73,6.4,PE,1619132591
226,Rome,43.2128,-75.4557,39.2,45,75,19.57,US,1619132591
227,Lakatoro,-16.0999,167.4164,84.88,69,77,9.48,VU,1619132592
228,Turan,16.0678,108.2208,77.0,88,20,2.3,VN,1619132506
229,Tālīkota,16.4833,76.3167,81.45,61,93,15.12,IN,1619132592
230,Poiana Mărului (Brașov),45.6,25.3,46.99,70,98,4.34,RO,1619132593
231,Zastavna,48.5231,25.8437,45.0,80,98,9.66,UA,1619132593
232,Wum,6.3833,10.0667,64.54,95,100,3.76,CM,1619132593
233,Nome,64.5011,-165.4064,44.6,49,40,8.05,US,1619132594
234,Avarua,-21.2078,-159.775,82.4,78,40,24.16,CK,1619132479
235,Port Elizabeth,-33.918,25.5701,64.4,94,0,11.5,ZA,1619132515
236,Acapulco de Juárez,16.8634,-99.8901,86.0,62,20,10.36,MX,1619132589
237,Dickson,36.077,-87.3878,59.0,29,1,6.91,US,1619132595
238,Novikovo,51.1537,37.8879,50.56,72,93,5.93,RU,1619132595
239,Zhigansk,66.7697,123.3711,21.2,93,100,12.48,RU,1619132596
240,Örnsköldsvik,63.2909,18.7153,33.8,60,95,8.05,SE,1619132596
241,Kandrian,-6.2167,149.55,84.0,72,87,3.91,PG,1619132596
242,Sīwah,29.2041,25.5195,67.23,35,61,12.5,EG,1619132597
243,Opoczno,51.3757,20.2783,35.01,10,59,7.0,PL,1619132597
244,Lalibela,12.0333,39.0333,64.38,45,89,5.66,ET,1619132598
245,Peterhead,57.5058,-1.7981,44.01,93,59,5.75,GB,1619132598
246,Ankazoabo,-22.2833,44.5167,68.5,73,0,4.61,MG,1619132598
247,Haines Junction,60.7522,-137.5108,48.2,25,0,5.75,CA,1619132557
248,Meridian,43.6121,-116.3915,70.0,18,1,5.75,US,1619132599
249,Sørland,67.667,12.6934,36.95,51,93,20.02,NO,1619132599
250,Puerto Nariño,-3.7703,-70.3831,87.8,70,40,3.44,CO,1619132600
251,Cabo San Lucas,22.8909,-109.9124,82.99,18,20,16.11,MX,1619132576
252,Mashhad,36.297,59.6062,55.4,41,0,2.42,IR,1619132600
253,Cidreira,-30.1811,-50.2056,69.85,72,1,16.51,BR,1619132601
254,Tateyama,34.9833,139.8667,57.0,52,8,13.35,JP,1619132601
255,Torbay,47.6666,-52.7314,46.0,93,90,23.02,CA,1619132601
256,Rocha,-34.4833,-54.3333,62.49,83,26,9.69,UY,1619132602
257,Geraldton,-28.7667,114.6,62.6,77,100,6.91,AU,1619132498
258,Hue,16.4667,107.6,77.0,100,40,3.44,VN,1619132504
259,Keti Bandar,24.1447,67.4497,80.91,77,0,17.81,PK,1619132603
260,San Patricio,28.017,-97.5169,73.4,83,90,19.57,US,1619132603
261,Takoradze,4.8845,-1.7554,82.06,86,100,9.57,GH,1619132613
262,Obama,35.4958,135.746,63.0,71,49,5.01,JP,1619132614
263,Jumla,29.2747,82.1838,34.9,78,5,6.08,NP,1619132478
264,Saint Anthony,45.0205,-93.218,64.0,20,1,17.27,US,1619132614
265,Tahe,52.3333,124.7333,31.08,37,80,10.85,CN,1619132615
266,Pearl,32.2746,-90.132,69.8,28,75,1.88,US,1619132615
267,Santa Cruz,30.4202,-9.5982,64.4,77,40,8.05,MA,1619132615
268,Binga,-17.6203,27.3414,65.98,72,33,1.07,ZW,1619132616
269,Jambi City,-1.6,103.6167,71.82,97,100,1.63,ID,1619132616
270,Øksfjord,70.2396,22.3479,32.0,74,40,2.3,NO,1619132617
271,Laguna,38.421,-121.4238,73.99,43,1,14.97,US,1619132617
272,Kaeo,-35.1,173.7833,64.0,92,100,1.99,NZ,1619132617
273,Ilulissat,69.2167,-51.1,24.8,74,100,4.41,GL,1619132530
274,Taihe,30.8712,105.3845,66.34,93,100,3.67,CN,1619132618
275,Broken Hill,-31.95,141.4333,50.0,71,0,7.63,AU,1619132542
276,Boyolangu,-8.1181,111.8935,72.01,86,28,0.49,ID,1619132619
277,Vredendal,-31.6683,18.5012,58.66,81,0,1.72,ZA,1619132619
278,Lubango,-14.9172,13.4925,59.38,73,95,3.22,AO,1619132620
279,Tuatapere,-46.1333,167.6833,54.0,87,99,4.0,NZ,1619132620
280,Sjøvegan,68.8726,17.8474,28.99,93,97,1.39,NO,1619132620
281,Banjar,-8.19,114.9675,77.0,73,20,2.3,ID,1619132621
282,Namatanai,-3.6667,152.4333,83.17,71,96,1.01,PG,1619132570
283,Matara,5.9485,80.5353,77.43,89,32,8.12,LK,1619132621
284,Kangasala,61.4638,24.076,36.0,100,75,2.3,FI,1619132622
285,Atambua,-9.1061,124.8925,73.96,81,42,2.33,ID,1619132622
286,Port Hardy,50.6996,-127.4199,53.6,76,20,5.75,CA,1619132595
287,Tazovsky,67.4667,78.7,30.6,89,99,17.09,RU,1619132623
288,Talisay City,10.2447,123.8494,82.4,83,40,9.22,PH,1619132623
289,Suntar,62.1444,117.6319,27.93,92,100,13.09,RU,1619132623
290,Henties Bay,-22.116,14.2845,63.0,87,75,3.0,NA,1619132606
291,Makkah al Mukarramah,21.4267,39.8261,84.42,37,74,4.25,SA,1619132554
292,Hrastnik,46.1461,15.0814,46.0,85,98,2.89,SI,1619132624
293,Lavrentiya,65.5833,-171.0,33.8,71,92,1.92,RU,1619132625
294,Lesnoye,58.2841,35.5158,43.02,90,32,7.61,RU,1619132625
295,Bilma,18.6853,12.9164,87.73,12,0,6.35,NE,1619132568
296,Al Bardīyah,31.7561,25.0865,61.45,73,73,8.25,LY,1619132626
297,Kostomuksha,64.571,30.5767,31.15,97,91,2.93,RU,1619132626
298,Safford,32.834,-109.7076,80.6,7,1,23.02,US,1619132627
299,Vila Velha,-20.3297,-40.2925,77.0,73,75,9.22,BR,1619132400
300,Sárospatak,48.3167,21.5833,42.8,65,0,6.91,HU,1619132627
301,El Alto,-4.2714,-81.2147,72.86,71,93,16.98,PE,1619132628
302,Grand Gaube,-20.0064,57.6608,75.99,87,100,1.99,MU,1619132520
303,Vostok,46.4856,135.8833,56.03,38,100,3.4,RU,1619132628
304,Vestmannaeyjar,63.4427,-20.2734,44.94,80,100,25.77,IS,1619132629
305,Talakan,50.3167,130.3667,45.48,74,100,10.22,RU,1619132629
306,Poplar Bluff,36.757,-90.3929,57.0,33,1,8.05,US,1619132629
307,Banda Aceh,5.5577,95.3222,80.02,80,94,10.2,ID,1619132630
308,Leningradskiy,69.3833,178.4167,34.56,81,92,1.1,RU,1619132640
309,Tura,25.5198,90.2201,69.48,66,46,1.92,IN,1619132641
310,Talnakh,69.4865,88.3972,30.9,96,100,13.13,RU,1619132641
311,Zapolyarnyy,69.4154,30.8136,33.8,80,90,8.05,RU,1619132641
312,Samarai,-10.6167,150.6667,82.83,77,76,3.71,PG,1619132568
313,Waipawa,-41.4122,175.5153,64.4,72,40,18.41,NZ,1619132642
314,Karratha,-20.7377,116.8463,74.19,28,0,13.29,AU,1619132643
315,Mariental,-24.6333,17.9667,68.09,29,37,9.13,NA,1619132643
316,Ponta Delgada,37.7333,-25.6667,59.0,77,40,31.07,PT,1619132643
317,Altay,47.8667,88.1167,24.87,47,90,2.64,CN,1619132644
318,Gangāwati,15.4333,76.5333,77.29,75,100,13.22,IN,1619132644
319,Jaipur,26.9167,75.8167,77.0,29,20,3.44,IN,1619132360
320,Cabedelo,-6.9811,-34.8339,78.8,100,0,5.75,BR,1619132645
321,Nouadhibou,20.931,-17.0347,64.4,88,0,16.11,MR,1619132600
322,Baykit,61.67,96.37,25.83,90,100,4.74,RU,1619132352
323,Sangar,63.9242,127.4739,13.35,91,88,6.58,RU,1619132646
324,Conceição do Araguaia,-8.2578,-49.2647,80.6,83,0,1.14,BR,1619132646
325,Westport,41.1415,-73.3579,44.01,49,83,1.99,US,1619132647
326,Provideniya,64.3833,-173.3,39.2,52,0,13.42,RU,1619132497
327,Yatou,37.15,122.3833,52.3,84,100,19.13,CN,1619132647
328,Pangoa,-12.1167,-73.0,70.52,97,42,1.25,PE,1619132647
329,Tall Kayf,37.0833,41.0667,59.13,30,0,6.15,TR,1619132648
330,Camacupa,-12.0167,17.4833,64.58,71,76,1.48,AO,1619132600
331,Chapais,49.7834,-74.8492,33.8,47,75,18.41,CA,1619132648
332,Olafsvik,64.8945,-23.7142,42.03,89,100,20.54,IS,1619132649
333,Marawi,7.9986,124.2928,77.0,84,78,4.0,PH,1619132649
334,Birjand,32.8663,59.2211,55.4,38,0,6.91,IR,1619132650
335,Egvekinot,66.3167,-179.1667,28.94,71,6,3.02,RU,1619132548
336,Bowen,-20.0167,148.2333,71.6,83,90,5.75,AU,1619132650
337,Kuang,3.2594,101.5541,75.99,94,20,1.66,MY,1619132651
338,Krasnosel'kup,65.7,82.4667,23.79,90,86,14.14,RU,1619132651
339,Urucará,-2.5364,-57.76,74.89,95,77,1.41,BR,1619132652
340,Exeter,50.7236,-3.5275,39.2,70,0,2.3,GB,1619132458
341,Gouré,13.9835,10.2704,82.65,12,61,4.29,NE,1619132652
342,Shache,38.4167,77.2406,50.41,14,12,6.73,CN,1619132652
343,Mitsamiouli,-11.3847,43.2844,80.85,76,100,15.05,KM,1619132653
344,Millinocket,45.6573,-68.7098,30.2,64,90,17.27,US,1619132610
345,Kuusankoski,60.907,26.6244,39.2,75,75,8.05,FI,1619132653
346,Coyhaique,-45.5752,-72.0662,46.4,87,75,3.02,CL,1619132654
347,Kindu,-2.95,25.95,71.06,94,74,1.97,CD,1619132655
348,Poum,-20.2333,164.0167,78.33,77,70,10.13,NC,1619132655
349,Superior,46.7208,-92.1041,64.4,20,40,16.11,US,1619132365
350,Shibetsu,43.659,145.132,38.12,81,54,10.74,JP,1619132656
351,Moelv,60.9333,10.7,32.0,66,26,4.81,NO,1619132666
352,Airai,-8.9266,125.4092,62.85,78,29,1.9,TL,1619132483
353,Le Port,-20.9373,55.2919,77.0,78,100,16.11,RE,1619132667
354,College Place,46.0493,-118.3883,73.0,24,40,12.66,US,1619132667
355,Mayo,38.8876,-76.5119,51.01,32,75,10.36,US,1619132668
356,Gomel,52.4345,30.9754,48.2,87,75,8.95,BY,1619132668
357,Nioro,13.35,-15.75,81.63,40,26,9.48,GM,1619132668
358,Port Lincoln,-34.7333,135.8667,61.18,66,90,8.3,AU,1619132669
359,Malibu,34.005,-118.8101,62.01,74,21,3.0,US,1619132647
360,Erdenet,49.0333,104.0833,20.66,92,100,7.07,MN,1619132669
361,Praia,14.9215,-23.5087,69.8,78,20,17.27,CV,1619132534
362,Ghātanji,20.1333,78.3167,84.25,16,44,2.98,IN,1619132670
363,Orlik,52.5178,99.825,17.65,83,100,2.44,RU,1619132670
364,Pangody,65.85,74.4859,28.9,84,77,17.31,RU,1619132671
365,Ketchikan,55.3422,-131.6461,57.2,28,1,12.66,US,1619132671
366,Antalaha,-14.9003,50.2788,73.62,90,91,7.49,MG,1619132672
367,Kisaran,2.9845,99.6158,73.31,97,100,2.26,ID,1619132672
368,Qui Nhon,13.7667,109.2333,77.47,89,85,3.22,VN,1619132672
369,Mersing,2.4312,103.8405,75.2,94,100,3.44,MY,1619132673
370,Turtas,58.9417,69.1325,35.26,65,82,10.42,RU,1619132673
371,North Bend,43.4065,-124.2243,64.0,71,40,10.36,US,1619132674
372,Sioux Lookout,50.1001,-91.917,64.4,19,40,10.36,CA,1619132674
373,Aklavik,68.2191,-135.0107,26.6,54,20,5.75,CA,1619132497
374,Pardina,45.3064,28.9569,48.2,81,75,3.44,RO,1619132674
375,Tecpan,14.7623,-90.9947,77.0,50,75,11.5,GT,1619132675
376,Wau,7.7029,27.9953,79.77,65,100,5.23,SS,1619132675
377,Hambantota,6.1241,81.1185,79.23,83,20,11.39,LK,1619132511
378,Kaliua,-5.0606,31.7936,65.07,89,47,4.12,TZ,1619132676
379,Flinders,-34.5833,150.8552,62.01,57,0,4.0,AU,1619132676
380,Juegang,32.3174,121.1855,64.99,93,97,7.27,CN,1619132677
381,Kruisfontein,-34.0033,24.7314,66.0,83,4,7.0,ZA,1619132677
382,Berlevåg,70.8578,29.0864,33.98,70,100,10.76,NO,1619132589
383,Pointe-Noire,-4.7761,11.8635,78.84,89,92,7.27,CG,1619132678
384,Athabasca,54.7169,-113.2854,33.8,43,81,9.22,CA,1619132678
385,La Ferté-Bernard,48.1863,0.6536,53.6,43,0,9.22,FR,1619132679
386,Douentza,14.9951,-2.9517,91.94,12,92,3.13,ML,1619132679
387,Gamba,-2.65,10.0,74.21,91,100,4.9,GA,1619132528
388,Saldanha,-33.0117,17.9442,59.05,90,0,5.88,ZA,1619132679
389,Arlit,18.7369,7.3853,87.1,6,47,9.17,NE,1619132680
390,Grindavik,63.8424,-22.4338,44.6,87,90,28.77,IS,1619132680
391,Mossamedes,-15.1961,12.1522,79.14,81,41,1.79,AO,1619132681
392,Cayenne,4.9333,-52.3333,79.0,94,90,6.91,GF,1619132418
393,Bubaque,11.2833,-15.8333,78.78,67,67,17.07,GW,1619132630
394,Guánica,17.9716,-66.908,81.0,72,59,3.0,PR,1619132681
395,Trujillo,-8.116,-79.03,66.2,88,40,13.8,PE,1619132575
396,Bambanglipuro,-7.95,110.2833,73.83,84,30,4.07,ID,1619132682
397,Bocas del Toro,9.3333,-82.25,66.99,70,5,4.0,PA,1619132682
398,Dicabisagan,17.0818,122.4157,77.2,78,95,3.09,PH,1619132693
399,Juradó,7.1053,-77.7641,79.66,84,80,1.5,CO,1619132693
400,Jāwā,31.8525,35.9393,66.2,22,43,3.44,JO,1619132694
401,Husavik,66.0449,-17.3389,39.2,87,0,3.44,IS,1619132694
402,Gloucester,51.8657,-2.2431,42.8,52,1,5.75,GB,1619132694
403,Abu Samrah,35.3029,37.1841,56.91,41,0,5.48,SY,1619132695
404,Yasnyy,51.0333,59.8742,44.13,64,100,8.19,RU,1619132695
405,Yar-Sale,66.8333,70.8333,33.04,87,69,14.92,RU,1619132696
406,Jieshi,22.8134,115.8257,74.44,80,10,4.16,CN,1619132696
407,Luwuk,-0.9516,122.7875,78.71,82,100,3.18,ID,1619132696
408,Dvinskoy Bereznik,62.8551,42.7072,38.62,88,96,4.63,RU,1619132697
409,Aksarka,66.5606,67.7975,34.99,90,100,12.75,RU,1619132697
410,Vila Franca do Campo,37.7167,-25.4333,59.0,77,40,31.07,PT,1619132697
411,Batagay-Alyta,67.8006,130.4114,1.54,79,33,3.18,RU,1619132698
412,Lata,40.1629,-8.3327,59.0,86,54,4.5,PT,1619132527
413,Dolinsk,47.35,142.8,33.8,100,75,4.47,RU,1619132698
414,Aykhal,66.0,111.5,22.6,93,99,26.11,RU,1619132699
415,Pelym,61.0108,61.9978,40.46,85,100,4.38,RU,1619132699
416,Ascension,30.2169,-90.9001,69.8,37,1,3.44,US,1619132700
417,Fuerte Olimpo,-21.0415,-57.8738,81.1,35,19,5.59,PY,1619132700
418,São Filipe,14.8961,-24.4956,73.02,73,59,12.39,CV,1619132701
419,Zabid,14.1951,43.3152,82.02,60,27,7.31,YE,1619132701
420,Zaysan,47.4667,84.8667,28.53,68,100,2.66,KZ,1619132701
421,Ferkessédougou,9.6,-5.2,78.75,70,42,5.73,CI,1619132537
422,Port Keats,-14.25,129.55,79.47,66,44,10.92,AU,1619132702
423,Aswān,24.0934,32.907,85.44,17,41,10.92,EG,1619132702
424,Tara,56.8944,74.371,29.68,74,9,6.22,RU,1619132703
425,Caborca,30.5838,-111.101,79.0,26,33,8.99,MX,1619132703
426,Sohag,26.557,31.6948,80.6,21,0,9.22,EG,1619132703
427,Atar,20.5169,-13.0499,80.85,12,0,6.73,MR,1619132704
428,Safi,32.2994,-9.2372,62.44,85,85,9.15,MA,1619132704
429,Luanda,-8.8368,13.2343,76.08,85,93,6.87,AO,1619132656
430,Kiryat Gat,31.61,34.7642,62.01,73,0,5.01,IL,1619132705
431,Muroto-misakicho,33.2833,134.15,59.0,58,0,8.05,JP,1619132433
432,Villa Tecolutilla,18.2833,-93.3167,91.4,58,75,13.8,MX,1619132705
433,Marsá Maţrūḩ,31.3525,27.2453,60.8,72,75,9.22,EG,1619132706
434,Omboué,-1.5746,9.2618,75.09,94,100,7.49,GA,1619132706
435,Ulladulla,-35.35,150.4667,59.0,54,0,11.5,AU,1619132707
436,Peleduy,59.6289,112.7406,26.19,91,100,11.18,RU,1619132603
437,Boaco,12.4722,-85.6586,93.2,51,40,9.22,NI,1619132707
438,Tupik,54.4253,119.9327,24.08,63,77,2.19,RU,1619132707
439,Havre-St-Pierre,50.2334,-63.5986,37.4,100,90,19.57,CA,1619132708
440,Ipixuna,-1.7625,-48.8043,75.2,94,75,4.61,BR,1619132708
441,Chifeng,42.2683,118.9636,49.12,81,100,2.48,CN,1619132709
442,Souillac,-20.5167,57.5167,77.0,94,75,6.91,MU,1619132709
443,Tabas,33.5959,56.9244,76.89,22,3,3.62,IR,1619132710
444,Auki,-8.7676,160.7034,85.01,66,83,2.06,SB,1619132710
445,Kimbe,-5.5502,150.1429,83.95,70,99,1.23,PG,1619132710
446,La Serena,-29.9078,-71.2542,59.0,82,75,6.91,CL,1619132568
447,Gopālganj,26.4667,84.4333,77.97,25,17,7.61,IN,1619132721
448,Krasnaya Gora,52.9995,31.6023,48.2,87,75,8.95,RU,1619132721
449,Walvis Bay,-22.9575,14.5053,66.2,68,3,5.75,NA,1619132722
450,Klaksvík,62.2266,-6.589,41.0,93,75,5.86,FO,1619132574
451,Baoding,38.8511,115.4903,52.9,77,62,4.9,CN,1619132722
452,Coruripe,-10.1256,-36.1756,79.09,85,48,11.01,BR,1619132723
453,Kelowna,49.8831,-119.4857,60.8,27,1,17.27,CA,1619132444
454,Ponyri,52.3186,36.3039,46.4,71,39,11.18,RU,1619132723
455,Philadelphia,39.9523,-75.1638,48.2,29,90,23.02,US,1619132509
456,Puerto Madero,14.7208,-92.4215,86.0,74,40,10.36,MX,1619132724
457,Banepā,27.6298,85.5214,51.8,76,20,3.44,NP,1619132724
458,Yangi Marg`ilon,40.4272,71.7189,48.2,76,0,1.68,UZ,1619132725
459,Tilichiki,60.4667,166.1,26.31,81,57,3.94,RU,1619132725
460,Kondinskoye,59.6481,67.41,39.45,70,100,13.06,RU,1619132725
461,Quatre Cocos,-20.2078,57.7625,77.0,94,75,6.91,MU,1619132726
462,Areosa,41.7178,-8.8571,57.0,88,0,2.3,PT,1619132726
463,Nelson Bay,-32.7167,152.15,59.0,44,0,20.71,AU,1619132726
464,Tocache,-8.1842,-76.5125,73.76,94,30,1.83,PE,1619132727
465,Dzaoudzi,-12.7887,45.2699,80.6,83,100,8.05,YT,1619132727
466,Nautla,20.2167,-96.7833,80.13,75,100,12.97,MX,1619132728
467,Teya,60.3778,92.6267,14.97,98,78,2.3,RU,1619132728
468,St. Pete Beach,27.7253,-82.7412,77.0,50,1,11.5,US,1619132729
469,Codrington,-38.2667,141.9667,56.01,72,100,11.86,AU,1619132541
470,Bouna,9.2667,-3.0,81.48,59,88,4.74,CI,1619132729
471,Bukachacha,52.9833,116.9167,28.15,47,90,4.05,RU,1619132730
472,Broome,42.2506,-75.833,37.99,86,90,10.36,US,1619132730
473,Nicolás Bravo,18.45,-88.9167,87.01,65,40,11.5,MX,1619132730
474,‘Āhuimanu,21.4447,-157.8378,84.2,65,40,14.97,US,1619132731
475,Barcelona,41.3888,2.159,57.0,87,40,1.72,ES,1619132638
476,Malé,4.1748,73.5089,82.4,83,75,12.66,MV,1619132731
477,Simao,22.7886,100.9748,61.86,48,0,0.92,CN,1619132732
478,Kumul,42.8,93.45,45.34,32,99,9.89,CN,1619132732
479,Guangyuan,32.442,105.823,63.45,94,100,4.07,CN,1619132732
480,High Level,58.5169,-117.136,35.6,35,75,17.27,CA,1619132733
481,Port Macquarie,-31.4333,152.9167,63.0,57,0,4.0,AU,1619132733
482,Nārsingi,18.0333,78.4333,82.02,48,93,5.68,IN,1619132734
483,São Mateus,-18.7161,-39.8589,71.37,92,50,4.09,BR,1619132734
484,Misratah,32.3754,15.0925,69.69,58,52,17.81,LY,1619132734
485,Buraidah,26.326,43.975,82.4,20,0,6.91,SA,1619132735
486,Kaohsiung City,22.6163,120.3133,75.2,83,40,9.22,TW,1619132735
487,Ostrovnoy,68.0531,39.5131,33.6,93,100,9.86,RU,1619132605
488,Morondava,-20.2833,44.2833,76.37,71,0,3.56,MG,1619132736
489,Bar Harbor,44.3876,-68.2039,36.0,51,75,11.5,US,1619132736
490,Taveta,-3.3963,37.6736,69.6,90,97,3.06,KE,1619132737
491,Viedma,-40.8135,-62.9967,60.58,59,40,7.14,AR,1619132737
492,Hong Kong,22.2855,114.1577,77.0,84,0,4.68,HK,1619132582
493,San Quintín,30.4833,-115.95,62.11,62,34,17.05,MX,1619132737
494,Bom Jesus,-9.0744,-44.3586,74.23,83,44,1.57,BR,1619132738
495,Petropavlovsk-Kamchatskiy,53.0452,158.6483,41.0,65,67,2.24,RU,1619132479
496,Kilrush,52.6397,-9.4833,46.4,66,0,6.91,IE,1619132748
497,Longido,-2.7333,36.6833,64.33,87,100,7.47,TZ,1619132749
498,Vardø,70.3705,31.1107,33.8,75,75,4.61,NO,1619132553
499,Lázaro Cárdenas,17.9583,-102.2,84.7,40,74,11.41,MX,1619132749
500,Upernavik,72.7868,-56.1549,22.14,88,100,6.53,GL,1619132492
501,Beroroha,-21.6667,45.1667,70.79,74,4,5.23,MG,1619132750
502,Visnes,59.3556,5.2242,42.8,61,90,11.5,NO,1619132750
503,Farīdpur,23.6,89.8333,82.4,74,40,6.91,BD,1619132743
504,Lacolle,45.0834,-73.3659,37.0,54,100,1.99,CA,1619132751
505,Deputatsky,69.3,139.9,4.82,94,94,2.15,RU,1619132751
506,Nadym,65.5333,72.5167,30.54,84,59,17.25,RU,1619132621
507,Padang,-0.9492,100.3543,75.2,94,40,2.3,ID,1619132492
508,Santa Cruz de la Sierra,-17.8,-63.1667,80.6,78,40,13.8,BO,1619132625
509,Gorkovskiy,45.6542,41.199,48.02,93,54,6.6,RU,1619132752
510,Yerbogachën,61.2767,108.0108,26.58,89,100,12.41,RU,1619132753
511,Sola,-13.8833,167.55,75.2,94,90,15.57,VU,1619132475
512,Cherskiy,68.75,161.3,18.34,90,100,10.36,RU,1619132753
513,Mwanza,-2.5167,32.9,67.91,83,54,6.53,TZ,1619132754
514,Lapeer,43.0514,-83.3188,48.2,29,40,5.75,US,1619132754
515,Mount Isa,-20.7333,139.5,71.6,26,29,13.8,AU,1619132754
516,Ballina,-28.8667,153.5667,61.0,48,0,9.22,AU,1619132538
517,Georgiyevka,43.0369,74.7114,35.6,93,0,6.71,KZ,1619132755
518,Lebyazh'ye,55.2689,66.4947,41.18,68,100,12.55,RU,1619132755
519,Hualmay,-11.0964,-77.6139,68.99,83,16,9.24,PE,1619132756
520,Ourém,39.6417,-8.5919,57.2,94,0,2.3,PT,1619132756
521,Necochea,-38.5473,-58.7368,62.01,92,100,3.0,AR,1619132757
522,Gizo Government Station,-8.103,156.8419,83.21,71,100,3.62,SB,1619132757
523,Santa Marinella,42.0345,11.8536,48.99,80,100,3.56,IT,1619132757
524,Saint-François,46.4154,3.9054,50.0,66,0,5.75,FR,1619132758
525,Bama,11.5221,13.6856,88.25,18,70,6.04,NG,1619132758
526,Byron Bay,-28.65,153.6167,61.0,48,0,9.22,AU,1619132758
527,Izhma,65.0083,53.9113,39.45,91,100,10.09,RU,1619132759
528,Cranbrook,49.4999,-115.7688,41.0,60,90,10.36,CA,1619132759
529,Folkestone,51.0833,1.1833,43.0,87,7,17.27,GB,1619132760
530,Pedernales,18.0384,-71.744,80.85,69,51,4.41,DO,1619132760
531,Kutum,14.2,24.6667,77.45,18,26,10.67,SD,1619132760
532,Split,43.5089,16.4392,51.8,82,0,5.75,HR,1619132742
533,Novoil'insk,51.6829,108.7143,27.82,86,100,3.0,RU,1619132761
534,Korla,41.7597,86.1469,43.16,46,100,18.39,CN,1619132761
535,Mahon,39.8885,4.2658,50.0,93,20,3.44,ES,1619132762
536,Melilla,35.2937,-2.9383,60.8,82,0,3.18,ES,1619132762
537,Belfast,54.5833,-5.9333,39.2,81,35,2.3,GB,1619132762
538,Ko Samui,9.5357,99.9357,82.99,77,85,15.28,TH,1619132763
539,Havelock,34.8791,-76.9013,57.99,28,20,13.8,US,1619132614
540,Tyul'gan,52.3405,56.166,38.82,90,100,9.08,RU,1619132763
541,Katsuura,35.1333,140.3,57.0,52,6,17.65,JP,1619132551
542,Barão de Melgaço,-16.1944,-55.9675,80.6,57,0,2.3,BR,1619132764
543,Marmaris,36.855,28.2742,60.8,82,0,5.75,TR,1619132764
544,Libreville,0.3925,9.4537,76.78,89,100,10.51,GA,1619132532
545,Najrān,17.4924,44.1277,71.6,20,0,2.3,SA,1619132775
546,Cap Malheureux,-19.9842,57.6142,75.99,87,100,3.0,MU,1619132775
547,Neuquén,-38.9516,-68.0591,60.8,77,0,2.3,AR,1619132735
548,Gigmoto,13.7796,124.39,80.42,84,86,4.23,PH,1619132776
549,Fredonia,42.4401,-79.3317,37.4,87,75,12.66,US,1619132688
550,Rodrigues Alves,-7.738,-72.6509,86.0,74,20,1.88,BR,1619132776
551,Villamontes,-21.25,-63.5,73.85,88,93,0.25,BO,1619132777
552,Vila,42.0304,-8.1588,51.01,91,82,4.43,PT,1619132777
553,Port-Gentil,-0.7193,8.7815,77.58,86,100,13.51,GA,1619132778
554,Road Town,18.4167,-64.6167,79.0,78,20,9.22,VG,1619132729
